City_ID,City,Lat,Lng,Max Temp,Humidity,Cloudiness,Wind Speed,Country,Date
0,port-aux-francais,-49.35,70.2167,4.9,66,61,10.51,TF,1702835547
1,ocean shores,46.9737,-124.1563,9.97,84,49,3.13,US,1702836019
2,salekhard,66.53,66.6019,-21.53,100,100,1.29,RU,1702836020
3,waitangi,-43.9535,-176.5597,16.01,94,86,2.24,NZ,1702835549
4,glace bay,46.1969,-59.957,2.83,71,75,7.2,CA,1702836021
5,puerto natales,-51.7236,-72.4875,14.25,30,20,5.66,CL,1702835561
6,tadmur,34.5608,38.2805,13.14,72,50,2.56,SY,1702836023
7,lata,40.1629,-8.3327,10.04,69,0,1.08,PT,1702836024
8,ushuaia,-54.8,-68.3,10.79,46,0,2.57,AR,1702835546
9,bethel,41.3712,-73.414,9.64,86,100,0.45,US,1702836025
10,sechura,-5.5569,-80.8222,28.21,58,63,4.33,PE,1702835589
11,moranbah,-22.0016,148.0466,23.0,69,54,1.87,AU,1702835570
12,lindley,-27.8791,27.9135,22.57,37,50,2.37,ZA,1702836027
13,thurgoona,-36.0451,146.9919,15.92,100,100,2.96,AU,1702836029
14,albany,42.6001,-73.9662,7.59,82,100,0.45,US,1702835550
15,alice springs,-23.7,133.8833,20.75,28,0,0.0,AU,1702835510
16,zhongshu,24.5167,103.7667,9.97,96,75,5.72,CN,1702836031
17,kingston,17.997,-76.7936,28.53,93,75,4.63,JM,1702836034
18,san ignacio,17.1561,-89.0714,24.08,73,100,5.14,BZ,1702835573
19,port augusta,-32.5,137.7667,26.77,16,99,1.29,AU,1702835553
20,alofi,-19.0595,-169.9187,24.94,94,100,5.66,NU,1702836038
21,thompson,55.7435,-97.8558,-14.91,78,75,4.63,CA,1702836040
22,nova vicosa,-17.8919,-39.3719,30.02,54,71,3.98,BR,1702836042
23,avarua,-21.2078,-159.775,26.03,89,20,6.17,CK,1702835557
24,kaa-khem,51.6833,94.7333,-27.55,85,88,2.1,RU,1702836043
25,weno,7.4515,151.8468,26.97,89,100,3.6,FM,1702836044
26,n'zeto,-7.2312,12.8666,25.56,91,100,2.79,AO,1702836044
27,port elizabeth,-33.918,25.5701,21.17,85,20,8.75,ZA,1702835553
28,saint-philippe,-21.3585,55.7679,25.77,79,98,5.27,RE,1702835599
29,fondi,41.3541,13.4313,10.45,65,0,1.3,IT,1702836047
30,kingsville,27.5159,-97.8561,19.1,41,20,0.89,US,1702836047
31,adamstown,-25.066,-130.1015,22.76,83,100,7.5,PN,1702835551
32,blackmans bay,-43.0167,147.3167,13.07,84,100,0.45,AU,1702835551
33,belinskiy,52.9647,43.4165,0.01,98,100,8.41,RU,1702836049
34,abaza,52.655,90.0928,-21.17,96,100,1.21,RU,1702836049
35,grytviken,-54.2811,-36.5092,5.75,62,100,5.27,GS,1702835545
36,new norfolk,-42.7826,147.0587,13.72,79,100,1.02,AU,1702835565
37,san sebastian de la gomera,28.0916,-17.1133,21.88,52,0,5.66,ES,1702836052
38,ilulissat,69.2167,-51.1,-11.99,40,75,6.69,GL,1702836053
39,edinburgh of the seven seas,-37.0676,-12.3116,13.13,67,10,4.46,SH,1702835566
40,necochea,-38.5473,-58.7368,23.63,68,53,6.51,AR,1702835594
41,haiku-pauwela,20.9219,-156.3051,22.25,78,42,4.02,US,1702836054
42,urangan,-25.3,152.9,25.52,81,93,3.77,AU,1702836054
43,lihue,21.9789,-159.3672,20.77,83,100,8.23,US,1702836055
44,targu-mures,46.5425,24.5575,-0.19,87,100,0.0,RO,1702835758
45,hithadhoo,-0.6,73.0833,28.91,74,10,5.93,MV,1702835585
46,yelizovo,53.1873,158.3805,0.08,63,100,14.0,RU,1702836056
47,luderitz,-26.6481,15.1594,17.8,71,0,8.8,NA,1702835565
48,hawaiian paradise park,19.5933,-154.9731,19.46,88,92,0.45,US,1702836057
49,paramonga,-10.6667,-77.8333,20.16,92,76,5.54,PE,1702836057
50,punta arenas,-53.15,-70.9167,14.06,35,0,8.23,CL,1702835551
51,saipan,15.1355,145.701,27.32,80,17,11.31,MP,1702836058
52,uliastay,47.7417,96.8444,-23.13,100,100,1.23,MN,1702836059
53,saratov,51.5667,46.0333,-2.92,62,72,3.13,RU,1702836035
54,lebanon,36.2081,-86.2911,11.16,80,100,4.12,US,1702835943
55,pisco,-13.7,-76.2167,23.34,78,0,5.14,PE,1702835375
56,badger,64.8,-147.5333,-10.05,91,40,2.06,US,1702836062
57,paka,4.6374,103.4368,25.96,94,96,0.0,MY,1702836063
58,dzhangala,49.2167,50.3333,-9.47,96,25,3.37,KZ,1702836063
59,west island,-12.1568,96.8225,26.99,74,40,4.63,CC,1702835572
60,pingzhuang,42.0372,119.2889,-20.25,87,2,1.85,CN,1702836066
61,samana,19.2056,-69.3369,28.12,83,75,4.12,DO,1702836067
62,bilibino,68.0546,166.4372,-33.17,99,93,0.66,RU,1702836067
63,katsuura,35.1333,140.3,6.99,43,44,4.95,JP,1702836068
64,ganja,40.6828,46.3606,7.48,71,75,2.06,AZ,1702836018
65,igrim,63.1906,64.4162,-11.55,93,100,5.25,RU,1702836071
66,tannum sands,-23.9504,151.3693,25.94,78,42,2.06,AU,1702836072
67,nova xavantina,-14.6667,-52.35,40.39,15,41,1.68,BR,1702836072
68,bastrop,32.7562,-91.8724,12.61,67,0,3.09,US,1702835812
69,bundaberg north,-24.8551,152.3425,23.45,96,93,1.94,AU,1702836073
70,touros,-5.1989,-35.4608,27.87,73,100,6.33,BR,1702835631
71,kyren,51.6828,102.1408,-20.59,96,100,0.45,RU,1702836075
72,klyuchi,52.2667,79.1667,-19.57,88,52,3.34,RU,1702836076
73,lago da pedra,-4.3333,-45.1667,31.92,54,99,1.8,BR,1702836076
74,port moresby,-9.4431,147.1797,25.53,86,100,2.47,PG,1702836077
75,karratha,-20.7377,116.8463,24.96,58,8,7.53,AU,1702835582
76,whitehorse,60.7161,-135.0538,-1.57,80,75,6.69,CA,1702836078
77,bredasdorp,-34.5322,20.0403,18.95,68,0,3.72,ZA,1702835550
78,tazovsky,67.4667,78.7,-15.27,77,100,9.42,RU,1702836080
79,revda,56.801,59.9303,-12.28,89,93,4.46,RU,1702836080
80,anadyr,64.75,177.4833,-20.72,77,40,6.0,RU,1702836081
81,vorgashor,67.5833,63.95,-19.09,90,82,5.13,RU,1702836082
82,talnakh,69.4865,88.3972,-16.55,81,100,7.51,RU,1702836082
83,papatowai,-46.5619,169.4708,8.62,85,6,2.02,NZ,1702835563
84,vernon,50.2581,-119.2691,4.23,89,100,0.45,CA,1702836027
85,fale old settlement,-9.3852,-171.2468,28.62,73,30,1.02,TK,1702835581
86,crane,31.3974,-102.3501,15.93,21,36,5.65,US,1702836086
87,kuraymah,18.55,31.85,26.93,31,34,5.18,SD,1702836087
88,katsuren-haebaru,26.3369,127.8719,16.43,81,100,4.12,JP,1702836087
89,livny,52.4253,37.6069,1.04,96,100,6.18,RU,1702836088
90,st. john's,47.5649,-52.7093,0.64,58,40,7.2,CA,1702835872
91,cabo san lucas,22.8909,-109.9124,28.75,66,73,2.15,MX,1702836083
92,howard springs,-12.497,131.047,28.95,96,100,2.83,AU,1702835621
93,ola,59.5833,151.2833,-22.36,86,24,6.61,RU,1702836091
94,cartagena,10.3997,-75.5144,30.79,70,40,3.6,CO,1702836002
95,hirara,24.8,125.2833,17.15,82,75,7.2,JP,1702836092
96,tiksi,71.6872,128.8694,-28.22,97,100,4.35,RU,1702836093
97,enewetak,11.3474,162.3373,27.27,80,70,10.76,MH,1702836094
98,qaqortoq,60.7167,-46.0333,-12.63,97,91,0.95,GL,1702836095
99,tanabe,33.7333,135.3667,4.31,65,74,7.2,JP,1702836095
100,margaret river,-33.95,115.0667,15.2,64,21,5.4,AU,1702835577
101,kidal,18.4411,1.4078,22.75,12,82,3.02,ML,1702836096
102,stung treng,13.5259,105.9683,23.44,73,64,2.26,KH,1702836097
103,el calafate,-50.3408,-72.2768,11.85,40,40,3.75,AR,1702836098
104,egilsstadir,65.2653,-14.3948,3.95,75,40,7.2,IS,1702836099
105,isafjordur,66.0755,-23.124,2.02,64,75,3.6,IS,1702836100
106,iqaluit,63.7506,-68.5145,-14.15,66,40,3.6,CA,1702835984
107,ponta delgada,37.7333,-25.6667,19.4,88,20,4.12,PT,1702836009
108,manismata,-2.4667,111.0333,23.69,98,95,0.52,ID,1702836102
109,delijan,33.9905,50.6838,12.56,21,34,2.19,IR,1702836103
110,asau,46.4333,26.4,4.51,84,96,3.39,RO,1702836104
111,sevlievo,43.0258,25.1136,1.67,75,65,1.41,BG,1702836105
112,banda aceh,5.5577,95.3222,26.03,84,98,4.26,ID,1702836105
113,kamalapuram,14.5833,78.65,21.98,92,76,2.35,IN,1702836106
114,hamilton,39.1834,-84.5333,12.92,77,20,4.63,US,1702835989
115,nacala,-14.5428,40.6728,27.63,82,57,4.72,MZ,1702836108
116,keflavik,64.0049,-22.5624,1.95,93,40,4.12,IS,1702836109
117,nova sintra,14.8667,-24.7167,22.1,67,0,3.7,CV,1702836109
118,undurkhaan,47.3194,110.6556,-25.49,86,97,0.53,MN,1702836110
119,port mathurin,-19.6833,63.4167,26.67,78,22,6.46,MU,1702835556
120,general acha,-37.377,-64.6043,24.9,21,0,9.7,AR,1702836111
121,kone,-21.0595,164.8658,23.62,83,82,1.84,NC,1702836111
122,yellowknife,62.456,-114.3525,-24.69,77,20,2.06,CA,1702836053
123,illizi,26.4833,8.4667,15.89,32,2,5.78,DZ,1702836113
124,ribeira grande,38.5167,-28.7,19.32,94,75,8.05,PT,1702836114
125,cholpon-ata,42.6494,77.0823,0.03,77,78,2.63,KG,1702836114
126,bardai,11.65,7.2333,22.81,17,7,3.69,NG,1702836115
127,port saint john's,-31.6229,29.5448,23.18,94,22,6.59,ZA,1702835602
128,kodiak,57.79,-152.4072,-0.32,73,62,5.18,US,1702836116
129,saint-pierre,-21.3393,55.4781,25.82,69,0,2.57,RE,1702836116
130,petropavlovsk-kamchatsky,53.0452,158.6483,-0.67,91,100,14.0,RU,1702836117
131,margate,51.3813,1.3862,9.39,82,4,4.02,GB,1702835596
132,gillette,44.2911,-105.5022,7.25,33,75,4.47,US,1702836006
133,georgetown,5.4112,100.3354,26.97,86,20,1.54,MY,1702835559
134,udachny,66.4167,112.4,-36.41,100,79,1.62,RU,1702836119
135,yakeshi,49.2833,120.7333,-40.42,100,97,0.88,CN,1702836120
136,adelaide,-34.9333,138.6,27.8,28,0,5.14,AU,1702836001
137,vikulovo,56.8167,70.6107,-13.67,79,100,8.66,RU,1702836121
138,college,64.8569,-147.8028,-10.01,92,40,2.06,US,1702836002
139,wailua homesteads,22.0669,-159.378,20.44,86,100,8.23,US,1702836123
140,vilyuysk,63.7553,121.6247,-43.33,100,67,0.89,RU,1702836123
141,olonkinbyen,70.9221,-8.7187,-1.85,72,100,2.64,SJ,1702836124
142,tura,25.5198,90.2201,14.65,87,11,1.12,IN,1702836124
143,vallenar,-28.5708,-70.7581,27.55,20,0,4.62,CL,1702836125
144,hermanus,-34.4187,19.2345,18.53,78,0,2.5,ZA,1702835574
145,uturoa,-16.7333,-151.4333,27.17,79,63,6.69,PF,1702835587
146,constitucion,-35.3333,-72.4167,16.75,55,1,7.57,CL,1702835591
147,tommot,58.9564,126.2925,-36.02,99,98,0.84,RU,1702836128
148,nizao,18.25,-70.2,28.04,71,38,4.59,DO,1702836129
149,irymple,-34.25,142.1667,23.9,25,100,4.7,AU,1702836129
150,arraial do cabo,-22.9661,-42.0278,31.98,70,0,10.8,BR,1702835560
151,seven pagodas,12.6264,80.1722,27.03,79,98,7.46,IN,1702836130
152,gadzhiyevo,69.2551,33.3362,-10.8,97,33,5.58,RU,1702836131
153,ressano garcia,-25.442,31.9913,23.7,86,21,2.79,MZ,1702836132
154,dali,25.7,100.1833,6.78,88,3,2.54,CN,1702836133
155,saldanha,-33.0117,17.9442,21.03,82,0,5.92,ZA,1702836133
156,sultanah,24.4926,39.5857,23.25,11,0,2.57,SA,1702836134
157,puerto ayora,-0.7393,-90.3518,29.98,88,74,4.02,EC,1702835545
158,masuguru,-11.3667,38.4167,26.87,72,98,2.5,TZ,1702836135
159,mandalgovi,45.7625,106.2708,-22.48,98,100,3.23,MN,1702836135
160,laguna,38.421,-121.4238,15.05,67,0,2.57,US,1702835575
161,longyearbyen,78.2186,15.6401,-1.09,80,40,5.14,SJ,1702836137
162,utena,55.5,25.6,3.4,98,100,5.8,LT,1702836138
163,betio village,1.358,172.9211,26.02,80,100,2.72,KI,1702836139
164,camocim,-2.9022,-40.8411,30.76,64,100,6.68,BR,1702836139
165,toma,12.7667,-2.8833,27.62,11,87,4.17,BF,1702836140
166,osorno,-40.5667,-73.15,13.17,67,75,2.06,CL,1702836140
167,omachi,36.5,137.8667,-1.79,76,32,2.55,JP,1702836141
168,stanley,54.868,-1.6985,11.01,83,40,8.75,GB,1702835452
169,mount pearl,47.5166,-52.7813,0.18,58,40,7.2,CA,1702836143
170,lieksa,63.3167,30.0167,1.27,80,69,7.85,FI,1702836143
171,mossel bay,-34.1831,22.146,18.96,71,54,4.0,ZA,1702836144
172,wanning,18.8003,110.3967,20.78,90,99,4.84,CN,1702836145
173,newman,37.3138,-121.0208,12.38,37,100,1.13,US,1702836146
174,mulchen,-37.7167,-72.2333,18.92,27,46,2.52,CL,1702836147
175,carloforte,39.145,8.3058,12.44,69,18,4.14,IT,1702836147
176,hasaki,35.7333,140.8333,6.27,40,63,8.03,JP,1702836148
177,hailey,43.5196,-114.3153,-2.08,59,0,3.6,US,1702836148
178,andergrove,-21.0833,149.1833,24.25,81,91,2.01,AU,1702835561
179,choibalsan,48.0667,114.5,-29.21,89,15,2.81,MN,1702836150
180,pacific grove,36.6177,-121.9166,15.38,63,100,1.54,US,1702836004
181,miches,18.9836,-69.0476,30.11,81,40,5.46,DO,1702836152
182,awjilah,29.1081,21.2869,16.2,52,51,3.11,LY,1702836153
183,al muwayh,22.4333,41.7583,15.47,19,0,4.57,SA,1702836153
184,jamestown,42.097,-79.2353,8.77,77,100,7.72,US,1702835267
185,la gi,10.6667,107.7833,23.68,84,41,4.57,VN,1702836155
186,quellon,-43.1167,-73.6167,11.15,69,25,2.55,CL,1702836156
187,datca,36.7378,27.6842,15.53,69,47,5.93,TR,1702836157
188,loa janan,-0.583,117.095,23.32,99,98,0.72,ID,1702836157
189,san julian,21.0167,-102.1667,16.13,47,86,2.36,MX,1702836157
190,cherryville,53.1569,-6.9667,12.53,87,99,6.86,IE,1702836158
191,east london,-33.0153,27.9116,22.52,88,0,4.63,ZA,1702835573
192,reguengos de monsaraz,38.4253,-7.5349,10.49,64,0,2.8,PT,1702836159
193,daru,-9.0763,143.2092,25.95,91,99,3.06,PG,1702836159
194,lovisa,60.4566,26.2251,-0.4,84,76,3.85,FI,1702836160
195,dryden,49.7833,-92.7503,-1.84,80,75,4.63,CA,1702836157
196,atafu village,-8.5421,-172.5159,28.89,71,30,1.82,TK,1702835605
197,abu dhabi,24.4667,54.3667,25.53,53,0,2.06,AE,1702836161
198,santa ana,33.7456,-117.8678,24.64,31,75,2.06,US,1702835863
199,huancabamba,-5.2386,-79.4506,22.37,71,85,1.53,PE,1702835891
200,mantua,45.1667,10.7833,2.81,92,2,2.24,IT,1702836162
201,nikolayevsk-on-amure,53.1406,140.73,-19.03,96,100,3.83,RU,1702836163
202,songyang,34.4553,113.0281,-5.53,84,98,0.76,CN,1702836163
203,lebu,-37.6167,-73.65,14.14,60,3,6.23,CL,1702836164
204,praia da vitoria,38.7333,-27.0667,19.31,94,100,8.28,PT,1702836166
205,medicine hat,50.0501,-110.6683,-0.71,75,75,1.03,CA,1702836062
206,selfoss,63.9331,-20.9971,1.69,81,99,3.46,IS,1702836167
207,mount gambier,-37.8333,140.7667,13.7,74,100,2.0,AU,1702835595
208,namdrik,5.5994,168.1028,26.36,88,100,7.82,MH,1702836167
209,erdemli,36.605,34.3084,16.56,59,69,3.24,TR,1702836168
210,kuqa,41.7278,82.9364,-6.33,41,0,1.65,CN,1702836169
211,mishkino,55.3389,63.9175,-10.31,91,100,4.74,RU,1702836169
212,bad bramstedt,53.9167,9.8833,9.03,51,68,2.24,DE,1702836170
213,suva,-18.1416,178.4415,25.71,94,75,2.57,FJ,1702836171
214,bereznik,62.8551,42.7072,-7.74,96,100,2.66,RU,1702836171
215,moengo,5.6167,-54.4,29.12,72,84,2.32,SR,1702836172
216,plastun,44.7561,136.2939,-19.68,60,5,4.81,RU,1702836174
217,barah,13.7,30.3667,25.12,26,75,4.84,SD,1702836174
218,coquimbo,-29.9533,-71.3436,19.85,55,0,6.17,CL,1702835580
219,malindi,-3.2175,40.1191,26.09,83,40,0.0,KE,1702836175
220,sitka,57.0531,-135.33,5.94,75,100,10.29,US,1702836176
221,diamantina,-18.2494,-43.6003,28.16,32,87,4.77,BR,1702836069
222,polyarnyy,69.1989,33.4478,-9.62,95,27,5.73,RU,1702836177
223,sokhumi,43.0033,41.0153,4.63,86,98,2.78,GE,1702836178
224,sisimiut,66.9395,-53.6735,-10.45,92,99,4.98,GL,1702836178
225,luganville,-15.5333,167.1667,24.89,87,70,1.72,VU,1702835609
226,jayapura,-2.5333,140.7,25.66,91,100,1.43,ID,1702836180
227,yamada,39.4667,141.95,-1.95,58,9,8.58,JP,1702836181
228,hami,42.8,93.45,-13.69,73,6,0.93,CN,1702836181
229,semirom,31.4167,51.5667,3.29,38,30,1.49,IR,1702836182
230,portland,45.5234,-122.6762,8.25,74,84,5.36,US,1702835530
231,aasiaat,68.7098,-52.8699,-19.24,82,98,4.39,GL,1702836184
232,cockburn town,21.4612,-71.1419,24.98,78,40,10.29,TC,1702836185
233,taoudenni,22.6783,-3.9836,16.9,22,25,7.33,ML,1702836185
234,bojia,26.4672,111.9681,2.19,69,100,1.74,CN,1702836187
235,carnarvon,-24.8667,113.6333,21.84,78,1,7.02,AU,1702836188
236,nuuk,64.1835,-51.7216,-6.66,68,100,8.23,GL,1702836019
237,ancud,-41.8697,-73.8203,12.09,59,16,5.5,CL,1702836189
238,strelka,58.0728,93.0344,-32.82,100,19,0.83,RU,1702836190
239,palmer,42.1584,-72.3287,8.33,75,100,1.54,US,1702835899
240,amparafaravola,-17.5833,48.2167,24.44,73,99,0.78,MG,1702836190
241,fort bragg,35.139,-79.006,12.91,94,100,7.2,US,1702836191
242,guamal,9.1433,-74.2238,32.82,58,87,0.8,CO,1702836191
243,songling,31.1933,120.7176,0.69,56,95,2.0,CN,1702836192
244,tshabong,-26.05,22.45,25.87,48,65,11.16,BW,1702836193
245,la foa,-21.7108,165.8276,24.02,80,91,1.85,NC,1702836193
246,sangueya,10.7,-14.3667,28.04,53,100,2.41,GN,1702836193
247,onega,63.9061,38.1404,-5.67,94,68,3.61,RU,1702836194
248,sos'va,59.1766,61.8558,-12.06,93,100,3.82,RU,1702836194
249,labuan bajo,-8.4964,119.8877,25.59,79,93,4.77,ID,1702836195
250,mejit,10.2753,170.8646,26.94,78,93,11.3,MH,1702836195
251,guerrero negro,27.9769,-114.0611,21.76,34,78,1.68,MX,1702836196
252,san antonio de pale,-1.4014,5.6325,27.25,81,100,3.8,GQ,1702836197
253,piriapolis,-34.8682,-55.2744,26.09,69,75,4.63,UY,1702836198
254,gunjur,13.2019,-16.7339,27.04,47,100,3.09,GM,1702836199
255,colonia,50.9333,6.95,7.14,90,0,2.06,DE,1702835972
256,castillos,-34.1667,-53.8333,28.33,72,68,2.19,UY,1702835612
257,shingu,33.7333,135.9833,2.42,69,54,3.1,JP,1702836200
258,chengdu,30.6667,104.0667,3.57,60,40,3.0,CN,1702835744
259,kavaratti,10.5669,72.642,28.34,72,89,1.4,IN,1702836202
260,khandyga,62.6667,135.6,-47.93,100,78,0.34,RU,1702836202
261,inda silase,14.1031,38.2829,17.94,36,25,2.98,ET,1702836019
262,goundam,16.4145,-3.6708,23.17,14,92,5.79,ML,1702836204
263,port lincoln,-34.7333,135.8667,21.63,65,100,2.04,AU,1702836204
264,kresttsy,58.2452,32.5165,-1.52,91,52,4.23,RU,1702836205
265,malvan,16.0667,73.4667,27.28,64,55,3.65,IN,1702836205
266,vorkuta,67.5,64.0,-18.16,89,81,5.27,RU,1702836206
267,port alfred,-33.5906,26.891,19.54,93,25,3.58,ZA,1702836207
268,gebre guracha,9.8,38.4,15.01,41,96,1.58,ET,1702836207
269,ambon,-3.6954,128.1814,26.16,15,40,3.09,ID,1702835609
270,forde,61.4522,5.8572,9.0,100,100,1.54,NO,1702836209
271,chibougamau,49.9168,-74.3659,2.79,70,100,7.2,CA,1702836209
272,koropi,37.8989,23.8718,9.86,66,40,8.75,GR,1702836210
273,minas de marcona,-15.2119,-75.1103,22.05,61,48,6.95,PE,1702836211
274,broken hill,-31.95,141.4333,24.78,19,97,4.48,AU,1702836212
275,geraldton,-28.7667,114.6,20.23,83,100,6.69,AU,1702835628
276,malango,-2.9627,119.9001,20.08,97,99,1.42,ID,1702836213
277,westport,41.1415,-73.3579,12.96,88,100,8.23,US,1702836214
278,labytnangi,66.6572,66.4183,-20.31,98,99,2.52,RU,1702836214
279,suwayr,30.1171,40.3893,14.52,33,62,2.36,SA,1702836215
280,vilyuchinsk,52.9306,158.4028,0.15,94,100,18.64,RU,1702836216
281,dudinka,69.4058,86.1778,-16.32,84,100,12.2,RU,1702836217
282,lompoc,34.6391,-120.4579,22.74,46,0,3.09,US,1702836087
283,greenville,35.6127,-77.3663,15.01,99,100,4.12,US,1702836218
284,princeville,45.7668,-61.2985,3.28,78,0,5.14,CA,1702836178
285,bamboo flat,11.7,92.7167,27.05,94,40,1.03,IN,1702836219
286,kharp,66.8014,65.8081,-19.54,100,100,2.22,RU,1702836220
287,shahrak,34.1074,64.3052,0.16,36,0,1.3,AF,1702836221
288,selkirk,50.1436,-96.8845,-2.96,89,100,2.24,CA,1702836223
289,machalpur,24.1333,76.3,16.39,44,2,3.18,IN,1702836223
290,iskateley,67.6803,53.1512,-14.43,89,97,8.94,RU,1702836224
291,mhamid,29.82,-5.72,12.78,25,0,4.72,MA,1702836224
292,leona vicario,20.9667,-87.1917,24.99,60,26,4.02,MX,1702836225
293,okhotsk,59.3833,143.3,-21.03,84,50,9.24,RU,1702836225
294,morpeth,55.1676,-1.6912,12.27,76,40,8.75,GB,1702836107
295,abohar,30.15,74.1833,13.38,35,0,2.24,IN,1702836227
296,sokolow podlaski,52.4068,22.2531,5.78,92,100,7.82,PL,1702835975
297,anaconda,46.1285,-112.9423,4.55,45,93,0.91,US,1702836010
298,antigonish,45.6169,-61.9986,3.79,77,91,4.47,CA,1702836229
299,chichimila,20.6167,-88.2167,26.75,54,34,3.28,MX,1702836229
300,olyokminsk,60.3736,120.4264,-27.11,97,100,1.75,RU,1702836230
301,pontianak,-0.0333,109.3333,24.99,100,75,1.03,ID,1702836231
302,nanakuli,21.3906,-158.1547,21.45,72,75,2.06,US,1702836232
303,sauri,11.7266,6.7837,24.17,16,14,3.5,NG,1702836233
304,serowe,-22.3833,26.7167,24.7,60,98,4.74,BW,1702836234
305,mikuni,36.2171,136.1519,3.95,65,100,7.35,JP,1702836235
306,tsengel,49.4783,100.8894,-19.96,98,100,1.04,MN,1702836236
307,fada,9.5667,8.3,25.25,23,8,2.35,NG,1702836237
308,invercargill,-46.4,168.35,8.05,88,17,2.56,NZ,1702836238
309,chaparral,3.7232,-75.4832,21.82,90,100,1.08,CO,1702836238
310,waingapu,-9.6567,120.2641,25.44,75,47,3.92,ID,1702836239
311,ust-nera,64.5667,143.2,-34.73,100,99,1.25,RU,1702836240
312,la passe,45.5549,-0.8967,3.13,76,0,1.53,FR,1702836242
313,hammerfest,70.6634,23.6821,0.25,93,75,2.57,NO,1702836243
314,mindelo,16.8901,-24.9804,26.75,54,40,8.75,CV,1702836244
315,gorontalo,0.5412,123.0595,24.55,96,97,1.45,ID,1702836245
316,vila franca do campo,37.7167,-25.4333,19.23,99,100,3.75,PT,1702836246
317,peace river,56.2501,-117.286,-10.83,85,75,2.57,CA,1702836054
318,prado,-17.3411,-39.2208,28.25,64,12,3.83,BR,1702836103
319,torghay,49.6339,63.4981,-4.88,63,100,3.58,KZ,1702836249
320,remire-montjoly,4.9167,-52.2667,31.02,66,20,4.63,GF,1702836251
321,afaahiti,-17.75,-149.2833,26.93,84,92,7.1,PF,1702836251
322,codrington,-38.2667,141.9667,13.98,73,100,2.67,AU,1702836252
323,zhaobaoshan,29.9695,121.6875,3.01,69,100,2.7,CN,1702836253
324,madang,-5.2246,145.7966,24.98,91,100,1.34,PG,1702836254
325,mahajanga,-15.7167,46.3167,29.01,74,20,3.6,MG,1702836255
326,faya-largeau,17.9257,19.1043,22.6,20,2,7.57,TD,1702836256
327,digne-les-bains,44.0833,6.25,6.29,60,0,1.95,FR,1702836257
328,yuzhno-kurilsk,44.0306,145.8556,-2.57,76,100,10.71,RU,1702836258
329,kruisfontein,-34.0033,24.7314,19.38,86,4,5.91,ZA,1702836259
330,gangneung,37.7556,128.8961,-7.69,43,0,4.24,KR,1702836260
331,melilla,35.2937,-2.9383,15.21,63,75,3.09,ES,1702836261
332,mabaruma,8.2,-59.7833,31.21,51,38,3.1,GY,1702836261
333,lagos,6.5833,3.75,31.18,71,42,2.26,NG,1702835976
334,constantia,44.1833,28.65,2.61,71,59,6.31,RO,1702836263
335,orkney,-26.9802,26.6727,28.84,27,60,2.39,ZA,1702836264
336,labrador city,52.9463,-66.9114,-2.05,80,100,10.29,CA,1702836015
337,champerico,14.3,-91.9167,33.3,65,7,2.8,GT,1702836266
338,swakopmund,-22.6833,14.5333,16.66,81,74,2.68,NA,1702836266
339,puerto baquerizo moreno,-0.9,-89.6,28.55,70,75,4.12,EC,1702836267
340,kirakira,-10.4544,161.9205,24.34,80,95,1.19,SB,1702836268
341,hojo,33.9766,132.7777,3.05,61,100,5.84,JP,1702836269
342,isangel,-19.55,169.2667,25.01,85,68,5.94,VU,1702836270
343,winston,28.0317,-82.0148,21.63,73,75,7.2,US,1702836271
344,dawei,14.0833,98.2,24.55,75,30,2.6,MM,1702836271
345,nyurba,63.2842,118.3319,-43.71,100,89,1.24,RU,1702836272
346,arkhangel'sk,64.5401,40.5433,-5.94,100,75,2.0,RU,1702836273
347,xining,36.6167,101.7667,-10.12,84,92,0.78,CN,1702836274
348,hungnam,39.8317,127.6186,-15.22,79,2,3.89,KP,1702836275
349,tangalle,6.024,80.7911,25.02,90,96,3.08,LK,1702836275
350,bikenibeu village,1.3673,173.1241,26.98,94,75,1.54,KI,1702836276
351,sainyabuli,19.25,101.75,17.74,90,10,0.47,LA,1702836278
352,kailua-kona,19.6406,-155.9956,21.95,70,40,2.57,US,1702836279
353,tobruk,32.0836,23.9764,17.5,76,13,6.56,LY,1702836279
354,ta`u,-14.2336,-169.5144,26.99,85,92,4.89,AS,1702836280
355,pangai,-19.8,-174.35,27.06,78,75,7.2,TO,1702836281
356,ulladulla,-35.35,150.4667,19.32,93,25,1.96,AU,1702836282
357,temiskaming shores,47.4938,-79.7153,4.89,75,99,5.86,CA,1702836283
358,sinabang,2.4803,96.3801,27.31,82,95,4.02,ID,1702836284
359,susuman,62.7833,148.1667,-29.45,100,98,1.34,RU,1702836285
360,jiwani,25.05,61.7417,22.53,30,0,4.15,PK,1702836286
361,kourou,5.1552,-52.6478,31.03,66,88,3.32,GF,1702836288
362,razole,16.4833,81.8333,21.66,80,75,2.01,IN,1702836288
363,funafuti,-8.5243,179.1942,28.0,94,100,0.51,TV,1702836289
364,callao,-12.0667,-77.15,24.16,64,20,7.72,PE,1702836290
365,maudaha,25.6833,80.1167,15.55,43,2,1.75,IN,1702836290
366,ixtapa,20.7,-105.2,30.87,31,87,2.06,MX,1702836020
367,paseh,-7.1026,107.7641,22.5,94,82,0.3,ID,1702836293
368,qamdo,31.1667,97.2333,-6.37,62,58,3.23,CN,1702836294
369,moldova noua,44.7375,21.6669,-1.1,89,61,0.81,RO,1702836294
370,aptos,36.9772,-121.8994,18.5,60,75,0.0,US,1702836295
371,utrik,11.2278,169.8474,26.66,83,100,11.24,MH,1702836296
372,namibe,-15.1961,12.1522,22.25,74,34,6.04,AO,1702836297
373,six-fours-les-plages,43.0938,5.84,10.81,80,0,1.33,FR,1702836298
374,saint-joseph,-21.3667,55.6167,25.21,78,98,3.41,RE,1702836299
375,vadso,70.0744,29.7487,-7.91,86,40,5.66,NO,1702836300
376,conde,-7.2597,-34.9075,29.7,62,20,6.17,BR,1702836301
377,tolanaro,-25.0319,46.9987,26.04,89,40,4.12,MG,1702836302
378,flin flon,54.7682,-101.865,-15.09,72,20,5.66,CA,1702836303
379,san felipe,10.3399,-68.7425,31.26,55,92,0.73,VE,1702836304
380,happy valley-goose bay,53.3168,-60.3315,1.17,51,75,7.72,CA,1702836306
381,fontenay-le-comte,46.5833,-1.0,2.8,82,0,1.2,FR,1702836307
382,batang,-6.4846,110.7083,25.11,78,50,4.27,ID,1702836308
383,sao tome,0.3365,6.7273,27.67,79,99,1.66,ST,1702836308
384,merowe,18.4833,31.8167,26.97,31,35,5.31,SD,1702836309
385,squamish,49.7014,-123.1512,8.36,91,89,1.74,CA,1702836310
386,zima,53.9202,102.0442,-20.58,90,100,4.38,RU,1702836312
387,eureka,40.8021,-124.1637,11.43,88,100,2.35,US,1702836136
388,copala,16.65,-98.9833,29.96,59,2,2.61,MX,1702836313
389,walvis bay,-22.9575,14.5053,16.72,77,38,8.2,NA,1702836315
390,altay,47.8667,88.1167,-22.26,71,2,3.01,CN,1702836316
391,ketchikan,55.3422,-131.6461,2.99,100,100,3.6,US,1702836317
392,naze,28.3667,129.4833,13.51,69,93,5.61,JP,1702836317
393,diamantino,-14.4086,-56.4461,37.76,23,100,3.28,BR,1702836318
394,masaya sur,16.497,121.7456,21.72,98,84,1.28,PH,1702836319
395,riyadh,24.6877,46.7219,15.08,61,0,3.26,SA,1702835975
396,guanica,17.9716,-66.908,31.1,63,40,9.49,PR,1702836321
397,imeko,7.45,2.85,30.73,19,19,1.5,NG,1702836321
398,puerto gaitan,4.3133,-72.0816,31.2,59,90,2.31,CO,1702836322
399,santa cruz,-17.8,-63.1667,35.7,52,40,14.92,BO,1702836322
400,rabaul,-4.1967,152.1721,26.31,83,61,2.1,PG,1702836323
401,sao joao da barra,-21.6403,-41.0511,32.05,74,82,5.49,BR,1702836182
402,kamaishi,39.2667,141.8833,-1.89,70,46,9.13,JP,1702836325
403,llanelli,51.682,-4.1619,11.59,91,100,9.26,GB,1702836123
404,werneck,49.9833,10.1,3.29,85,98,1.44,DE,1702836326
405,mahibadhoo,3.7833,72.9667,28.42,73,62,2.58,MV,1702836327
406,holualoa,19.6228,-155.9522,19.88,71,40,2.57,US,1702836327
407,lethem,3.3803,-59.7968,35.92,36,95,4.24,GY,1702836328
408,quepos,9.4236,-84.1652,29.95,71,100,3.2,CR,1702836328
409,kokopo,-4.352,152.2633,25.14,87,70,1.8,PG,1702836330
410,tual,-5.6667,132.75,28.22,80,92,6.63,ID,1702836331
411,sacramento,38.4666,-121.3177,16.63,70,0,1.54,US,1702836313
412,nadi,-17.8,177.4167,25.0,88,75,0.0,FJ,1702836332
413,fomboni,-12.28,43.7425,28.45,75,77,4.24,KM,1702836332
414,darovskoy,58.77,47.9564,-9.45,94,100,4.71,RU,1702836333
415,zalari,53.5584,102.5065,-20.61,91,100,4.58,RU,1702836334
416,khadyzhensk,44.4256,39.5319,-5.37,92,40,2.33,RU,1702836335
417,formiga,-20.4644,-45.4264,32.71,26,67,0.98,BR,1702836076
418,turgen,43.4006,77.5933,-6.93,74,57,2.88,KZ,1702836336
419,hadibu,12.65,54.0333,24.63,75,78,8.54,YE,1702836336
420,kibale,0.8,31.0667,19.64,83,94,1.32,UG,1702836337
421,panama city beach,30.1766,-85.8055,17.07,84,100,6.69,US,1702836184
422,erenhot,43.6475,111.9767,-20.08,92,28,1.67,CN,1702836339
423,kristiansund,63.1115,7.732,3.36,93,75,1.54,NO,1702836340
424,makueni boma,-1.8041,37.6203,17.5,94,95,1.42,KE,1702836340
425,sola,-13.8833,167.55,25.37,94,40,1.54,VU,1702836341
426,kapa'a,22.0752,-159.319,22.18,82,100,8.75,US,1702836342
427,beipiao,41.7919,120.7792,-20.59,90,4,0.69,CN,1702836342
428,plettenberg bay,-34.0527,23.3716,18.62,83,71,3.43,ZA,1702836343
429,nemuro,43.3236,145.575,-1.4,67,83,13.21,JP,1702836067
430,nogliki,51.8333,143.1667,-18.7,96,100,7.6,RU,1702836345
431,harper,4.375,-7.7169,28.08,75,16,3.48,LR,1702836345
432,fisterra,42.9049,-9.2629,9.45,70,0,2.46,ES,1702836346
433,mount isa,-20.7333,139.5,28.87,58,86,3.6,AU,1702836063
434,shenjiamen,29.9576,122.298,6.79,64,100,4.48,CN,1702836347
435,stepnoye,51.4,46.8667,-6.87,94,57,7.61,RU,1702836348
436,arkhara,49.4212,130.0842,-34.57,100,76,1.79,RU,1702836349
437,hilo,19.7297,-155.09,22.85,80,75,3.09,US,1702836323
438,sabang,5.8933,95.3214,27.81,77,91,7.45,ID,1702836350
439,tanggu,39.0211,117.6469,-15.02,77,87,2.46,CN,1702836351
440,shakawe,-18.3667,21.85,24.59,65,85,1.17,BW,1702836351
441,reyes,-14.3167,-67.3833,36.75,37,48,3.44,BO,1702836352
442,myaydo,19.3667,95.2167,20.17,69,12,1.41,MM,1702836352
443,bezhetsk,57.7851,36.6965,-1.26,86,81,7.41,RU,1702836354
444,porto novo,6.4965,2.6036,29.9,68,10,3.16,BJ,1702836355
445,kota kinabalu,5.9749,116.0724,25.99,89,20,2.24,MY,1702836186
446,sittwe,20.15,92.9,20.23,72,41,2.13,MM,1702836355
447,coremas,-7.0144,-37.9458,38.26,21,70,0.65,BR,1702836206
448,levuka,50.1834,-105.4011,-2.1,57,50,8.55,CA,1702836356
449,hengchun,22.0042,120.7439,20.41,73,50,11.56,TW,1702836357
450,nyandoma,61.669,40.1991,-2.07,85,100,5.63,RU,1702836357
451,noshiro,40.2039,140.0242,-2.22,74,100,11.78,JP,1702836357
452,saudarkrokur,65.7461,-19.6394,0.1,93,100,4.13,IS,1702836192
453,boca suno,-0.7167,-77.1333,23.77,94,100,0.44,EC,1702836358
454,perryton,36.4,-100.8027,13.44,46,0,3.09,US,1702836063
455,northam,51.0333,-4.2167,12.03,88,56,6.89,GB,1702836359
456,kingscliff,-28.2667,153.5667,24.41,100,75,1.54,AU,1702836360
457,gwanda,-20.9333,29.0,21.23,90,99,5.48,ZW,1702836360
458,kapuskasing,49.4169,-82.4331,3.05,93,75,4.12,CA,1702836151
459,buka,40.8108,69.1986,0.32,91,27,1.99,UZ,1702836361
460,kirkwood,38.5834,-90.4068,5.77,80,100,5.66,US,1702836362
461,charters towers,-20.1,146.2667,21.03,91,100,3.26,AU,1702836363
462,rio san juan,19.6439,-70.0763,30.09,74,51,7.54,DO,1702836364
463,eyl,7.9803,49.8164,24.79,71,85,11.72,SO,1702836364
464,hauterive,46.0901,3.4459,3.88,100,0,1.02,FR,1702836365
465,aginskoye,51.1,114.53,-28.74,99,8,1.46,RU,1702836365
466,lillebonne,49.5203,0.5362,5.35,82,0,2.19,FR,1702836366
467,melfort,52.8667,-104.6177,-6.93,73,82,5.66,CA,1702836366
468,kamogawa,35.1,140.1,6.74,45,47,4.07,JP,1702836141
469,dwarka,22.2394,68.9678,23.18,46,25,5.29,IN,1702836367
470,santyoku,37.4406,129.1708,-6.23,40,0,3.98,KR,1702836368
471,shalya,57.2471,58.7298,-13.25,93,100,4.25,RU,1702836368
472,rodnikovskaya,44.7644,40.6656,-6.33,93,74,3.18,RU,1702836369
473,ambodifotatra,-16.9833,49.85,27.33,78,73,4.77,MG,1702836369
474,guixi,28.2886,117.2133,2.26,71,100,3.03,CN,1702836370
475,leshan,29.5623,103.7639,4.69,58,96,0.84,CN,1702836370
476,coxen hole,16.3244,-86.5366,26.6,65,40,5.14,HN,1702836371
477,rudnyy,52.9594,63.1206,-8.87,90,100,4.38,KZ,1702836371
478,gao,16.6362,1.637,22.65,11,27,4.05,ML,1702836198
479,chengde,40.9725,117.9361,-20.76,92,5,1.43,CN,1702836372
480,mar del plata,-38.0023,-57.5575,27.13,71,75,4.47,AR,1702836339
481,lazaro cardenas,17.9583,-102.2,29.54,63,1,1.88,MX,1702836373
482,cedeira,43.6797,-8.0209,11.32,74,0,1.45,ES,1702836375
483,san patricio,28.017,-97.5169,18.92,40,46,0.6,US,1702836376
484,sandnessjoen,66.0217,12.6316,4.29,81,75,2.06,NO,1702836376
485,meridian,43.6121,-116.3915,0.11,93,100,4.63,US,1702836377
486,karpinsk,59.7654,60.0085,-14.75,95,99,3.06,RU,1702836377
487,livingston,55.9029,-3.5226,11.73,87,75,5.66,GB,1702836378
488,thurso,58.5927,-3.5259,12.14,92,100,7.78,GB,1702836378
489,haverfordwest,51.8017,-4.9691,11.7,87,99,2.24,GB,1702836379
490,veraval,20.9,70.3667,22.29,41,19,5.73,IN,1702836379
491,tomatlan,19.9333,-105.25,31.82,39,37,1.97,MX,1702836380
492,chitungwiza,-18.0127,31.0756,20.81,86,100,0.72,ZW,1702836263
493,cidade velha,14.9167,-23.6167,26.26,61,20,7.72,CV,1702836381
494,pandan,14.0453,124.1694,26.38,87,91,8.89,PH,1702836381
495,colchani,-20.3,-66.9333,19.36,16,43,2.8,BO,1702836382
496,sarikei,2.1167,111.5167,25.05,99,93,0.42,MY,1702836382
497,saarijarvi,62.7049,25.254,0.09,80,18,5.83,FI,1702836383
498,smithers,54.7804,-127.1743,-6.82,93,100,3.6,CA,1702836383
499,ingeniero jacobacci,-41.3427,-69.5448,12.65,29,82,7.78,AR,1702836384
500,mafeteng,-29.823,27.2374,22.21,36,41,3.51,LS,1702836384
501,jumla,29.2747,82.1838,0.55,30,1,2.99,NP,1702836384
502,troitsko-pechorsk,62.7084,56.1964,-13.64,93,100,3.81,RU,1702836385
503,upington,-28.4478,21.2561,38.21,8,20,5.66,ZA,1702836386
504,scarborough,54.2797,-0.4044,11.06,83,46,4.92,GB,1702836387
505,tefe,-3.3542,-64.7114,31.06,66,40,1.03,BR,1702836200
506,umbauba,-11.3833,-37.6578,30.73,44,96,4.9,BR,1702836188
507,harar,9.3094,42.1258,14.21,66,72,3.63,ET,1702836389
508,nagqu,31.5,92.0,-20.68,77,0,1.05,CN,1702836389
509,shilin,24.8188,103.3324,9.89,84,22,4.58,CN,1702836390
510,quatre cocos,-20.2078,57.7625,27.06,82,82,3.35,MU,1702836390
511,boonville,38.9736,-92.7432,8.68,71,0,3.09,US,1702836391
512,conduaga,8.862,117.4893,25.81,80,89,1.14,PH,1702836392
513,ebon,4.582,168.6964,27.39,77,100,1.02,MH,1702836392
514,rikaze,29.25,88.8833,-0.76,34,3,1.87,CN,1702836393
515,eregli,37.5133,34.0467,4.94,74,95,1.81,TR,1702836376
516,luanda,-8.8368,13.2343,27.0,83,75,5.66,AO,1702836123
517,murzuq,25.9155,13.9184,14.21,41,0,4.52,LY,1702836394
518,kaiyuan,23.6977,103.3037,10.18,96,36,2.69,CN,1702836394
519,alexandria,31.2156,29.9553,17.3,68,100,4.97,EG,1702835980
520,princeton,25.5384,-80.4089,26.0,72,75,8.75,US,1702835903
521,cabedelo,-6.9811,-34.8339,30.37,69,84,5.35,BR,1702836396
522,assab,13.0092,42.7394,25.78,62,16,11.72,ER,1702836396
523,timra,62.487,17.3257,-6.18,100,61,1.03,SE,1702836396
524,kijang,35.2442,129.2139,-5.15,38,74,2.66,KR,1702836397
525,konosha,60.9736,40.257,-1.68,87,100,5.33,RU,1702836398
526,san pedro de lloc,-7.4328,-79.5058,24.42,68,91,6.54,PE,1702836399
527,goba,7.0167,39.9833,11.93,68,100,0.48,ET,1702836400
528,villa emilio carranza,19.9667,-96.6,22.43,64,2,3.82,MX,1702836400
529,huarmey,-10.0681,-78.1522,24.41,75,49,5.11,PE,1702836401
530,yeppoon,-23.1333,150.7333,21.88,85,59,1.88,AU,1702836401
531,marka,1.7159,44.7717,27.18,81,30,9.45,SO,1702836402
532,mogocha,53.7333,119.7667,-33.4,98,50,1.52,RU,1702836402
533,mogadishu,2.0371,45.3438,27.39,78,72,10.32,SO,1702836292
534,puerto cabezas,14.0351,-83.3888,29.66,59,87,5.94,NI,1702836403
535,penzance,50.1186,-5.5371,11.38,90,22,9.63,GB,1702836115
536,kuta,-8.7233,115.1723,26.97,74,20,1.54,ID,1702836404
537,malpica,43.3228,-8.8105,11.85,92,0,0.92,ES,1702836404
538,kosti,13.1629,32.6635,29.92,25,61,4.04,SD,1702836404
539,klaksvik,62.2266,-6.589,7.51,78,36,10.88,FO,1702836405
540,garoowe,8.4054,48.4845,24.33,47,11,10.29,SO,1702836323
541,aleksandrovsk,59.158,57.5624,-11.22,52,100,3.81,RU,1702836406
542,ribas do rio pardo,-20.4431,-53.7592,42.24,12,44,3.41,BR,1702836406
543,helena valley southeast,46.6153,-111.9216,5.52,62,0,0.45,US,1702836406
544,kalemie,-5.9475,29.1947,23.37,83,89,0.73,CD,1702836407
545,gaalkacyo,6.7697,47.4308,24.48,61,22,9.96,SO,1702836407
546,xuanzhou,30.9525,118.7553,-0.26,46,100,4.76,CN,1702836408
547,swift current,50.2834,-107.8014,-1.7,50,8,7.79,CA,1702836408
548,laojunmiao,39.8333,97.7333,-12.4,67,1,1.2,CN,1702836409
549,kimbe,-5.5502,150.1429,25.13,92,100,1.18,PG,1702836410
550,zmeinogorsk,51.1567,82.195,-25.25,96,6,1.66,RU,1702836411
551,dunedin,-45.8742,170.5036,11.56,81,82,0.68,NZ,1702836412
552,val-d'or,48.1002,-77.7828,5.05,75,75,9.26,CA,1702836186
553,chonchi,-42.6128,-73.8092,12.56,66,33,1.68,CL,1702836413
554,huadian,42.9633,126.7478,-20.49,86,15,2.26,CN,1702836413
555,kyaikkami,16.08,97.5675,27.03,67,21,2.38,MM,1702836414
556,nienburg,52.6333,9.2167,8.49,79,45,6.73,DE,1702836414
557,koundara,12.4833,-13.3,29.22,16,100,2.34,GN,1702836415
558,nar'yan-mar,67.6713,53.087,-14.38,89,98,8.94,RU,1702836415
559,toliara,-23.35,43.6667,26.59,79,100,4.9,MG,1702836416
560,itamaraca,-7.7478,-34.8256,30.03,65,82,4.28,BR,1702836416
561,palikir - national government center,6.9248,158.1611,27.64,77,54,8.75,FM,1702836416
562,vila velha,-20.3297,-40.2925,30.97,62,20,5.14,BR,1702836417
563,berezovyy,51.6667,135.7,-19.66,89,100,1.9,RU,1702836417
564,la possession,-20.9289,55.3351,25.99,85,0,3.6,RE,1702836418
